{
  "version": "1.1.0",
  "updated": "2026-03-04",
  "source": "swelleye.com + outdoorfun.com.tw + CWA opendata",
  "notes": "座標為近似值（精度約 100-200m）。cwa_tide_station: CWA F-A0021-001 LocationId。cwa_county: CWA F-D0047-091 縣市名稱（臺灣正體）",
  "spots": [
    {
      "id": "shalun",
      "name_zh": "沙崙",
      "name_en": "Shalun",
      "region": "north",
      "city": "新北市",
      "district": "淡水區",
      "lat": 25.1758,
      "lon": 121.4098,
      "wave_type": "beach_break",
      "difficulty": "beginner",
      "best_season": ["autumn", "winter"],
      "best_wind": "south",
      "cwa_county": "新北市",
      "cwa_tide_station": "65000100",
      "notes": "淡水河口南側沙灘，新手友善"
    },
    {
      "id": "baishawan",
      "name_zh": "白沙灣",
      "name_en": "Baishawan",
      "region": "north",
      "city": "新北市",
      "district": "三芝區",
      "lat": 25.2764,
      "lon": 121.5378,
      "wave_type": "beach_break",
      "difficulty": "beginner",
      "best_season": ["autumn", "winter"],
      "best_wind": "south",
      "cwa_county": "新北市",
      "cwa_tide_station": "65000210",
      "notes": "白色沙灘，適合初學者，北海岸熱門景點"
    },
    {
      "id": "zhongjiaobay",
      "name_zh": "中角灣",
      "name_en": "Zhongjiao Bay",
      "region": "north",
      "city": "新北市",
      "district": "金山區",
      "lat": 25.2362,
      "lon": 121.6066,
      "wave_type": "beach_break",
      "difficulty": "beginner_intermediate",
      "best_season": ["autumn", "winter"],
      "best_wind": "southwest",
      "cwa_county": "新北市",
      "cwa_tide_station": "O00100",
      "notes": "國際衝浪基地，設施完善，WSL 賽事曾舉辦地"
    },
    {
      "id": "jinshan",
      "name_zh": "金山",
      "name_en": "Jinshan",
      "region": "north",
      "city": "新北市",
      "district": "金山區",
      "lat": 25.2280,
      "lon": 121.6380,
      "wave_type": "beach_break",
      "difficulty": "beginner_intermediate",
      "best_season": ["autumn", "winter"],
      "best_wind": "south",
      "cwa_county": "新北市",
      "cwa_tide_station": "65000270",
      "notes": "金山老街附近，交通便利"
    },
    {
      "id": "greenbay",
      "name_zh": "翡翠灣",
      "name_en": "Green Bay",
      "region": "north",
      "city": "新北市",
      "district": "萬里區",
      "lat": 25.2332,
      "lon": 121.6170,
      "wave_type": "beach_break",
      "difficulty": "beginner",
      "best_season": ["autumn", "winter"],
      "best_wind": "south",
      "cwa_county": "新北市",
      "cwa_tide_station": "A01500",
      "notes": "翡翠灣渡假區，適合家庭"
    },
    {
      "id": "wanli",
      "name_zh": "萬里",
      "name_en": "Wanli",
      "region": "north",
      "city": "新北市",
      "district": "萬里區",
      "lat": 25.1920,
      "lon": 121.7034,
      "wave_type": "beach_break",
      "difficulty": "beginner_intermediate",
      "best_season": ["autumn", "winter"],
      "best_wind": "south",
      "cwa_county": "新北市",
      "cwa_tide_station": "65000280",
      "notes": "野柳附近，北海岸衝浪熱點"
    },
    {
      "id": "fulong",
      "name_zh": "福隆",
      "name_en": "Fulong",
      "region": "northeast",
      "city": "新北市",
      "district": "貢寮區",
      "lat": 25.0239,
      "lon": 121.9435,
      "wave_type": "beach_break",
      "difficulty": "beginner_intermediate",
      "best_season": ["autumn", "winter", "spring"],
      "best_wind": "west",
      "cwa_county": "新北市",
      "cwa_tide_station": "O00300",
      "notes": "雙溪河口沙洲，左右浪型，著名沙灘，注意水流"
    },
    {
      "id": "daxi_honeymoon",
      "name_zh": "大溪蜜月灣",
      "name_en": "Daxi Honeymoon Bay",
      "region": "northeast",
      "city": "宜蘭縣",
      "district": "頭城鎮",
      "lat": 24.8654,
      "lon": 121.8512,
      "wave_type": "beach_break",
      "difficulty": "intermediate",
      "best_season": ["autumn", "winter"],
      "best_wind": "west",
      "cwa_county": "宜蘭縣",
      "cwa_tide_station": "10002040",
      "notes": "宜蘭知名浪點，台灣十大衝浪點之一，東北季風期浪況穩定"
    },
    {
      "id": "waiao",
      "name_zh": "外澳",
      "name_en": "Wai'ao",
      "region": "northeast",
      "city": "宜蘭縣",
      "district": "頭城鎮",
      "lat": 24.9028,
      "lon": 121.8220,
      "wave_type": "beach_break",
      "difficulty": "intermediate",
      "best_season": ["autumn", "winter"],
      "best_wind": "west",
      "cwa_county": "宜蘭縣",
      "cwa_tide_station": "I02200",
      "notes": "外澳火車站對面，交通便利，沙礫混合底"
    },
    {
      "id": "wushi_north",
      "name_zh": "烏石港北堤",
      "name_en": "Wushi North Breakwater",
      "region": "northeast",
      "city": "宜蘭縣",
      "district": "頭城鎮",
      "lat": 24.8735,
      "lon": 121.8308,
      "wave_type": "point_break",
      "difficulty": "intermediate_advanced",
      "best_season": ["autumn", "winter"],
      "best_wind": "southwest",
      "cwa_county": "宜蘭縣",
      "cwa_tide_station": "O00400",
      "notes": "北堤旁，浪型較為穩定，中進階玩家"
    },
    {
      "id": "wushi_south",
      "name_zh": "烏石港南堤",
      "name_en": "Wushi South Breakwater",
      "region": "northeast",
      "city": "宜蘭縣",
      "district": "頭城鎮",
      "lat": 24.8705,
      "lon": 121.8285,
      "wave_type": "beach_break",
      "difficulty": "beginner_intermediate",
      "best_season": ["autumn", "winter"],
      "best_wind": "west",
      "cwa_county": "宜蘭縣",
      "cwa_tide_station": "O00400",
      "notes": "南堤旁，較北堤和緩，初中階皆宜"
    },
    {
      "id": "gengfang",
      "name_zh": "梗枋",
      "name_en": "Gengfang",
      "region": "northeast",
      "city": "宜蘭縣",
      "district": "頭城鎮",
      "lat": 24.8168,
      "lon": 121.8300,
      "wave_type": "beach_break",
      "difficulty": "intermediate",
      "best_season": ["autumn", "winter"],
      "best_wind": "west",
      "cwa_county": "宜蘭縣",
      "cwa_tide_station": "I02200",
      "notes": "頭城南側，宜蘭十大衝浪點之一"
    },
    {
      "id": "suao_wuwei",
      "name_zh": "蘇澳無尾港",
      "name_en": "Suao Wuwei",
      "region": "northeast",
      "city": "宜蘭縣",
      "district": "蘇澳鎮",
      "lat": 24.5987,
      "lon": 121.8550,
      "wave_type": "beach_break",
      "difficulty": "intermediate",
      "best_season": ["autumn", "winter"],
      "best_wind": "west",
      "cwa_county": "宜蘭縣",
      "cwa_tide_station": "10002030",
      "notes": "蘇澳南方，靠近無尾港水鳥保護區"
    },
    {
      "id": "hualien_beibin",
      "name_zh": "花蓮北濱",
      "name_en": "Hualien North Coast",
      "region": "east",
      "city": "花蓮縣",
      "district": "花蓮市",
      "lat": 23.9998,
      "lon": 121.6191,
      "wave_type": "beach_break",
      "difficulty": "beginner_intermediate",
      "best_season": ["autumn", "winter", "summer"],
      "best_wind": "west",
      "cwa_county": "花蓮縣",
      "cwa_tide_station": "10015010",
      "notes": "花蓮市北濱公園旁，交通便利，全年可浪"
    },
    {
      "id": "yanliao",
      "name_zh": "鹽寮漁港",
      "name_en": "Yanliao Fishing Harbor",
      "region": "east",
      "city": "花蓮縣",
      "district": "壽豐鄉",
      "lat": 23.9378,
      "lon": 121.6392,
      "wave_type": "beach_break",
      "difficulty": "intermediate",
      "best_season": ["autumn", "winter", "summer"],
      "best_wind": "west",
      "cwa_county": "花蓮縣",
      "cwa_tide_station": "10015060",
      "notes": "花蓮七星潭南方，Gongs 浪點"
    },
    {
      "id": "jiqi",
      "name_zh": "磯崎",
      "name_en": "Jiqi",
      "region": "east",
      "city": "花蓮縣",
      "district": "豐濱鄉",
      "lat": 23.7985,
      "lon": 121.6042,
      "wave_type": "beach_break",
      "difficulty": "intermediate",
      "best_season": ["autumn", "winter", "summer"],
      "best_wind": "west",
      "cwa_county": "花蓮縣",
      "cwa_tide_station": "10015080",
      "notes": "花蓮南部海岸，較少人、自然環境佳"
    },
    {
      "id": "heren",
      "name_zh": "和仁礫灘",
      "name_en": "Heren Gravel Beach",
      "region": "east",
      "city": "花蓮縣",
      "district": "秀林鄉",
      "lat": 24.2200,
      "lon": 121.6020,
      "wave_type": "beach_break",
      "difficulty": "beginner",
      "best_season": ["autumn", "winter", "summer"],
      "best_wind": "west",
      "cwa_county": "花蓮縣",
      "cwa_tide_station": "10015110",
      "notes": "花蓮北部礫石灘，景色壯麗，鄰近清水斷崖"
    },
    {
      "id": "baxiandong",
      "name_zh": "八仙洞",
      "name_en": "Eight Immortals Cave",
      "region": "east",
      "city": "台東縣",
      "district": "長濱鄉",
      "lat": 23.4490,
      "lon": 121.4626,
      "wave_type": "beach_break",
      "difficulty": "intermediate",
      "best_season": ["autumn", "winter"],
      "best_wind": "southwest",
      "cwa_county": "臺東縣",
      "cwa_tide_station": "10014080",
      "notes": "台東長濱北端，知名衝浪點，礫石底"
    },
    {
      "id": "chenggong",
      "name_zh": "成功",
      "name_en": "Chenggong",
      "region": "east",
      "city": "台東縣",
      "district": "成功鎮",
      "lat": 23.1003,
      "lon": 121.3682,
      "wave_type": "beach_break",
      "difficulty": "beginner_intermediate",
      "best_season": ["autumn", "winter", "summer"],
      "best_wind": "west",
      "cwa_county": "臺東縣",
      "cwa_tide_station": "10014020",
      "notes": "成功鎮漁港附近，台東東海岸中段"
    },
    {
      "id": "donghe",
      "name_zh": "東河",
      "name_en": "Donghe",
      "region": "east",
      "city": "台東縣",
      "district": "東河鄉",
      "lat": 23.0767,
      "lon": 121.3424,
      "wave_type": "river_mouth",
      "difficulty": "intermediate",
      "best_season": ["autumn", "winter"],
      "best_wind": "southwest",
      "cwa_county": "臺東縣",
      "cwa_tide_station": "10014070",
      "notes": "台灣浪況最一致的浪點之一，東河溪口，冬季長浪穩定，礁石底"
    },
    {
      "id": "jinzun",
      "name_zh": "金樽",
      "name_en": "Jinzun",
      "region": "east",
      "city": "台東縣",
      "district": "東河鄉",
      "lat": 23.0197,
      "lon": 121.3188,
      "wave_type": "beach_break",
      "difficulty": "intermediate",
      "best_season": ["autumn", "winter"],
      "best_wind": "southwest",
      "cwa_county": "臺東縣",
      "cwa_tide_station": "O01300",
      "notes": "金樽漁港旁，台東知名浪點，景色優美"
    },
    {
      "id": "dulan",
      "name_zh": "都蘭",
      "name_en": "Dulan",
      "region": "east",
      "city": "台東縣",
      "district": "東河鄉",
      "lat": 22.9547,
      "lon": 121.2722,
      "wave_type": "beach_break",
      "difficulty": "beginner_intermediate",
      "best_season": ["autumn", "winter", "summer"],
      "best_wind": "west",
      "cwa_county": "臺東縣",
      "cwa_tide_station": "10014070",
      "notes": "都蘭灣，藝文衝浪聚落，全年可浪"
    },
    {
      "id": "taitung_city",
      "name_zh": "台東市區",
      "name_en": "Taitung City",
      "region": "east",
      "city": "台東縣",
      "district": "台東市",
      "lat": 22.7490,
      "lon": 121.1640,
      "wave_type": "beach_break",
      "difficulty": "beginner",
      "best_season": ["summer", "autumn"],
      "best_wind": "west",
      "cwa_county": "臺東縣",
      "cwa_tide_station": "10014010",
      "notes": "台東活水湖附近，WSL 台灣國際衝浪賽場地"
    },
    {
      "id": "jiupeng",
      "name_zh": "九棚",
      "name_en": "Jiupeng",
      "region": "south",
      "city": "屏東縣",
      "district": "滿州鄉",
      "lat": 22.2523,
      "lon": 120.8834,
      "wave_type": "beach_break",
      "difficulty": "intermediate_advanced",
      "best_season": ["summer", "autumn"],
      "best_wind": "north",
      "cwa_county": "屏東縣",
      "cwa_tide_station": "10013330",
      "notes": "屏東最南端，颱風浪強，較少遊客，沙丘地形"
    },
    {
      "id": "jialeshui",
      "name_zh": "佳樂水",
      "name_en": "Jialeshui",
      "region": "south",
      "city": "屏東縣",
      "district": "滿州鄉",
      "lat": 21.9573,
      "lon": 120.8527,
      "wave_type": "point_break",
      "difficulty": "intermediate_advanced",
      "best_season": ["summer", "autumn"],
      "best_wind": "north",
      "cwa_county": "屏東縣",
      "cwa_tide_station": "10013240",
      "notes": "墾丁東側，夏季颱風浪著名，礁石地形"
    },
    {
      "id": "nanwan",
      "name_zh": "南灣",
      "name_en": "Nanwan",
      "region": "south",
      "city": "屏東縣",
      "district": "恆春鎮",
      "lat": 21.9477,
      "lon": 120.8262,
      "wave_type": "beach_break",
      "difficulty": "beginner",
      "best_season": ["summer"],
      "best_wind": "north",
      "cwa_county": "屏東縣",
      "cwa_tide_station": "O00700",
      "notes": "墾丁南灣，觀光客多，夏季西南風浪，適合初學"
    },
    {
      "id": "shanban",
      "name_zh": "杉板灣",
      "name_en": "Shanban Bay",
      "region": "south",
      "city": "屏東縣",
      "district": "琉球鄉",
      "lat": 22.3330,
      "lon": 120.3760,
      "wave_type": "beach_break",
      "difficulty": "beginner",
      "best_season": ["summer"],
      "best_wind": "north",
      "cwa_county": "屏東縣",
      "cwa_tide_station": "10013220",
      "notes": "小琉球，適合初學，沙灘平緩，夏季南風浪"
    },
    {
      "id": "qijin",
      "name_zh": "旗津",
      "name_en": "Qijin",
      "region": "west",
      "city": "高雄市",
      "district": "旗津區",
      "lat": 22.5990,
      "lon": 120.2780,
      "wave_type": "beach_break",
      "difficulty": "beginner",
      "best_season": ["autumn", "winter"],
      "best_wind": "east",
      "cwa_county": "高雄市",
      "cwa_tide_station": "64000100",
      "notes": "高雄旗津沙灘，北風時有浪，西海岸難得衝浪點"
    },
    {
      "id": "yuguangdao",
      "name_zh": "漁光島",
      "name_en": "Yuguang Island",
      "region": "west",
      "city": "台南市",
      "district": "安平區",
      "lat": 22.9600,
      "lon": 120.1600,
      "wave_type": "beach_break",
      "difficulty": "beginner",
      "best_season": ["autumn", "winter"],
      "best_wind": "east",
      "cwa_county": "臺南市",
      "cwa_tide_station": "I00500",
      "notes": "台南安平，西海岸冬季北風浪"
    },
    {
      "id": "waipu",
      "name_zh": "外埔漁港",
      "name_en": "Waipu Fishing Harbor",
      "region": "west",
      "city": "台中市",
      "district": "大甲區",
      "lat": 24.2742,
      "lon": 120.5478,
      "wave_type": "beach_break",
      "difficulty": "beginner_intermediate",
      "best_season": ["autumn", "winter"],
      "best_wind": "east",
      "cwa_county": "臺中市",
      "cwa_tide_station": "66000110",
      "notes": "台中大甲，西海岸冬季東北季風浪"
    },
    {
      "id": "zhunan",
      "name_zh": "竹南",
      "name_en": "Zhunan",
      "region": "west",
      "city": "苗栗縣",
      "district": "竹南鎮",
      "lat": 24.6758,
      "lon": 120.8657,
      "wave_type": "beach_break",
      "difficulty": "beginner_intermediate",
      "best_season": ["autumn", "winter"],
      "best_wind": "east",
      "cwa_county": "苗栗縣",
      "cwa_tide_station": "10005040",
      "notes": "苗栗西海岸，冬季北風時可浪"
    }
  ]
}
